<?xml version='1.0' encoding='UTF-8'?>
<kml xmlns='http://www.opengis.net/kml/2.2'>
	<Document>
		<name>Municipalities</name>
		<Placemark>
			<name>Tver</name>
			<styleUrl>#icon-1899-0288D1-nodesc</styleUrl>
			<Point>
				<coordinates>35.917596499999945,56.85872140000001,0.0</coordinates>
			</Point>
		</Placemark>
		<Placemark>
			<name>Kuujärvi</name>
			<styleUrl>#icon-1899-0288D1-nodesc</styleUrl>
			<Point>
				<coordinates>33.7424469,61.0090696,0.0</coordinates>
			</Point>
		</Placemark>
		<Placemark>
			<name>Nekkula</name>
			<styleUrl>#icon-1899-0288D1-nodesc</styleUrl>
			<Point>
				<coordinates>33.0111694,60.9224243,0.0</coordinates>
			</Point>
		</Placemark>
		<Placemark>
			<name>Riipuskala</name>
			<styleUrl>#icon-1899-0288D1-nodesc</styleUrl>
			<Point>
				<coordinates>32.7392578,61.0396722,0.0</coordinates>
			</Point>
		</Placemark>
		<Placemark>
			<name>Kiestinki</name>
			<styleUrl>#icon-1899-0288D1-nodesc</styleUrl>
			<Point>
				<coordinates>31.83318220000001,65.8912276,0.0</coordinates>
			</Point>
		</Placemark>
		<Placemark>
			<name>Tihvinä</name>
			<styleUrl>#icon-1899-0288D1-nodesc</styleUrl>
			<Point>
				<coordinates>33.54103199999997,59.6443858,0.0</coordinates>
			</Point>
		</Placemark>
		<Placemark>
			<name>Vaaseni</name>
			<styleUrl>#icon-1899-0288D1-nodesc</styleUrl>
			<Point>
				<coordinates>34.02192170000001,60.95963219999999,0.0</coordinates>
			</Point>
		</Placemark>
		<Placemark>
			<name>Kendjärvi</name>
			<styleUrl>#icon-1899-0288D1-nodesc</styleUrl>
			<Point>
				<coordinates>34.008426,62.1176826,0.0</coordinates>
			</Point>
		</Placemark>
		<Placemark>
			<name>Mundjärvi</name>
			<styleUrl>#icon-1899-0288D1-nodesc</styleUrl>
			<Point>
				<coordinates>32.88916670000003,62.27888890000001,0.0</coordinates>
			</Point>
		</Placemark>
		<Placemark>
			<name>Pyhäjärvi</name>
			<styleUrl>#icon-1899-0288D1-nodesc</styleUrl>
			<Point>
				<coordinates>33.61694030000001,61.5594187,0.0</coordinates>
			</Point>
		</Placemark>
		<Placemark>
			<name>Uhtua</name>
			<styleUrl>#icon-1899-0288D1-nodesc</styleUrl>
			<Point>
				<coordinates>31.18338719999997,65.2014995,0.0</coordinates>
			</Point>
		</Placemark>
		<Placemark>
			<name>Vuokkiniemi</name>
			<styleUrl>#icon-1899-0288D1-nodesc</styleUrl>
			<Point>
				<coordinates>30.552698400000054,64.9549001,0.0</coordinates>
			</Point>
		</Placemark>
		<Placemark>
			<name>Rukajärvi</name>
			<styleUrl>#icon-1899-0288D1-nodesc</styleUrl>
			<Point>
				<coordinates>32.78415599999994,64.0828697,0.0</coordinates>
			</Point>
		</Placemark>
		<Placemark>
			<name>Säämäjärvi</name>
			<styleUrl>#icon-1899-0288D1-nodesc</styleUrl>
			<Point>
				<coordinates>33.14940290000004,61.9558255,0.0</coordinates>
			</Point>
		</Placemark>
		<Placemark>
			<name>Tiutia</name>
			<styleUrl>#icon-1899-0288D1-nodesc</styleUrl>
			<Point>
				<coordinates>33.962099999999964,62.561581,0.0</coordinates>
			</Point>
		</Placemark>
		<Placemark>
			<name>Paatene</name>
			<styleUrl>#icon-1899-0288D1-nodesc</styleUrl>
			<Point>
				<coordinates>33.41567580000003,63.28636170000001,0.0</coordinates>
			</Point>
		</Placemark>
		<Placemark>
			<name>Vitele</name>
			<styleUrl>#icon-1899-0288D1-nodesc</styleUrl>
			<Point>
				<coordinates>32.391025300000024,61.1955077,0.0</coordinates>
			</Point>
		</Placemark>
		<Placemark>
			<name>Impilahti</name>
			<styleUrl>#icon-1899-0288D1-nodesc</styleUrl>
			<Point>
				<coordinates>31.154730299999983,61.6707599,0.0</coordinates>
			</Point>
		</Placemark>
		<Placemark>
			<name>Jyskyjärvi</name>
			<styleUrl>#icon-1899-0288D1-nodesc</styleUrl>
			<Point>
				<coordinates>32.07193819999998,64.768762,0.0</coordinates>
			</Point>
		</Placemark>
		<Placemark>
			<name>Leningradin alue</name>
			<styleUrl>#icon-1899-0288D1-nodesc</styleUrl>
			<Point>
				<coordinates>31.892664400000058,60.0793208,0.0</coordinates>
			</Point>
		</Placemark>
		<Placemark>
			<name>Oulanka</name>
			<styleUrl>#icon-1899-0288D1-nodesc</styleUrl>
			<Point>
				<coordinates>29.738704299999995,66.2652093,0.0</coordinates>
			</Point>
		</Placemark>
		<Placemark>
			<name>Paanajärvi</name>
			<styleUrl>#icon-1899-0288D1-nodesc</styleUrl>
			<Point>
				<coordinates>32.901985800000034,64.971775,0.0</coordinates>
			</Point>
		</Placemark>
		<Placemark>
			<name>Ponkama</name>
			<styleUrl>#icon-1899-0288D1-nodesc</styleUrl>
			<Point>
				<coordinates>32.95904589999998,65.3574359,0.0</coordinates>
			</Point>
		</Placemark>
		<Placemark>
			<name>Prääsä</name>
			<styleUrl>#icon-1899-0288D1-nodesc</styleUrl>
			<Point>
				<coordinates>33.620106899999996,61.6972353,0.0</coordinates>
			</Point>
		</Placemark>
		<Placemark>
			<name>Suoju</name>
			<styleUrl>#icon-1899-0288D1-nodesc</styleUrl>
			<Point>
				<coordinates>34.23417219999999,61.89866869999999,0.0</coordinates>
			</Point>
		</Placemark>
		<Placemark>
			<name>Kontokki</name>
			<styleUrl>#icon-1899-0288D1-nodesc</styleUrl>
			<Point>
				<coordinates>30.56410690000007,64.57128329999999,0.0</coordinates>
			</Point>
		</Placemark>
		<Placemark>
			<name>Kotkatjärvi</name>
			<styleUrl>#icon-1899-0288D1-nodesc</styleUrl>
			<Point>
				<coordinates>33.20833300000004,61.26944399999999,0.0</coordinates>
			</Point>
		</Placemark>
		<Placemark>
			<name>Lotinanpelto</name>
			<styleUrl>#icon-1899-0288D1-nodesc</styleUrl>
			<Point>
				<coordinates>33.54941680000002,60.7302587,0.0</coordinates>
			</Point>
		</Placemark>
		<Placemark>
			<name>Mäntyselkä</name>
			<description><![CDATA[Epävarma!]]></description>
			<styleUrl>#icon-1899-0288D1</styleUrl>
			<Point>
				<coordinates>33.815918,62.9252357,0.0</coordinates>
			</Point>
		</Placemark>
		<Placemark>
			<name>Porajärvi</name>
			<styleUrl>#icon-1899-0288D1-nodesc</styleUrl>
			<Point>
				<coordinates>32.31666700000005,62.97694399999999,0.0</coordinates>
			</Point>
		</Placemark>
		<Placemark>
			<name>Sunnunsuu</name>
			<description><![CDATA[Epävarma!]]></description>
			<styleUrl>#icon-1899-0288D1</styleUrl>
			<Point>
				<coordinates>33.729866300000026,62.3099942,0.0</coordinates>
			</Point>
		</Placemark>
		<Placemark>
			<name>Vieljärvi</name>
			<styleUrl>#icon-1899-0288D1-nodesc</styleUrl>
			<Point>
				<coordinates>32.842106400000034,61.5741757,0.0</coordinates>
			</Point>
		</Placemark>
		<Placemark>
			<name>Vitsataipale</name>
			<description><![CDATA[Epävarma!]]></description>
			<styleUrl>#icon-1899-0288D1</styleUrl>
			<Point>
				<coordinates>32.8463745,65.7238521,0.0</coordinates>
			</Point>
		</Placemark>
		<Placemark>
			<name>Voijärvi</name>
			<styleUrl>#icon-1899-0288D1-nodesc</styleUrl>
			<Point>
				<coordinates>33.791388900000015,64.7338889,0.0</coordinates>
			</Point>
		</Placemark>
		<Placemark>
			<name>Haljärvi</name>
			<styleUrl>#icon-1899-0288D1-nodesc</styleUrl>
			<Point>
				<coordinates>33.870795000000044,62.115773,0.0</coordinates>
			</Point>
		</Placemark>
		<Style id='icon-1899-0288D1-normal'>
			<IconStyle>
				<color>ffD18802</color>
				<scale>1.0</scale>
				<Icon>
					<href>http://www.gstatic.com/mapspro/images/stock/503-wht-blank_maps.png</href>
				</Icon>
			</IconStyle>
			<LabelStyle>
				<scale>0.0</scale>
			</LabelStyle>
		</Style>
		<Style id='icon-1899-0288D1-highlight'>
			<IconStyle>
				<color>ffD18802</color>
				<scale>1.0</scale>
				<Icon>
					<href>http://www.gstatic.com/mapspro/images/stock/503-wht-blank_maps.png</href>
				</Icon>
			</IconStyle>
			<LabelStyle>
				<scale>1.0</scale>
			</LabelStyle>
		</Style>
		<StyleMap id='icon-1899-0288D1'>
			<Pair>
				<key>normal</key>
				<styleUrl>#icon-1899-0288D1-normal</styleUrl>
			</Pair>
			<Pair>
				<key>highlight</key>
				<styleUrl>#icon-1899-0288D1-highlight</styleUrl>
			</Pair>
		</StyleMap>
		<Style id='icon-1899-0288D1-nodesc-normal'>
			<IconStyle>
				<color>ffD18802</color>
				<scale>1.0</scale>
				<Icon>
					<href>http://www.gstatic.com/mapspro/images/stock/503-wht-blank_maps.png</href>
				</Icon>
			</IconStyle>
			<LabelStyle>
				<scale>0.0</scale>
			</LabelStyle>
			<BalloonStyle>
				<text><![CDATA[<h3>$[name]</h3>]]></text>
			</BalloonStyle>
		</Style>
		<Style id='icon-1899-0288D1-nodesc-highlight'>
			<IconStyle>
				<color>ffD18802</color>
				<scale>1.0</scale>
				<Icon>
					<href>http://www.gstatic.com/mapspro/images/stock/503-wht-blank_maps.png</href>
				</Icon>
			</IconStyle>
			<LabelStyle>
				<scale>1.0</scale>
			</LabelStyle>
			<BalloonStyle>
				<text><![CDATA[<h3>$[name]</h3>]]></text>
			</BalloonStyle>
		</Style>
		<StyleMap id='icon-1899-0288D1-nodesc'>
			<Pair>
				<key>normal</key>
				<styleUrl>#icon-1899-0288D1-nodesc-normal</styleUrl>
			</Pair>
			<Pair>
				<key>highlight</key>
				<styleUrl>#icon-1899-0288D1-nodesc-highlight</styleUrl>
			</Pair>
		</StyleMap>
	</Document>
</kml>